[
    {"latitude": "17.5448642", "Phone": 9327832737, "name": "Relief Hospitals", "longitude": "78.3466638", "area":"Bachupally"},
    {"latitude": "17.5044701", "Phone": 6437674334, "name": "Mirra Multispeciality Hospitals", "longitude": "78.2576407", "area":"Miyapur X Road"},
    {"latitude": "17.5257418", "Phone": 7834384342, "name": "Vasavi Hospitals", "longitude": "78.3543954","area":"Bachupally"},
    {"latitude": "17.4991545", "Phone": 7337228790, "name": "LandMark Hospitals", "longitude": "78.3608284","area":"Jntu"},
    {"latitude": "17.4856857", "Phone": 7438349834, "name": "Remedy Hospital", "longitude": "78.3807191","area":"KPHB"},
    {"latitude": "17.4856857", "Phone": 8943398434, "name": "Omni Hospital", "longitude": "78.3807191","area":"Kukatpally Y Jun"},
    {"latitude": "17.4836391", "Phone": 9439433444, "name": "Amor Hospital", "longitude": "78.3961257","area":"Habeeb Nagar"},
    {"latitude": "17.4532454", "Phone": 934094343, "name": "AIG Hospitals", "longitude": "78.285754","area":"Gachibowli"},
    {"latitude": "17.417046", "Phone": 894342343, "name": "Care Hospital", "longitude": "78.4289454","area":"Banjara Hills"},
    {"latitude": "17.417046", "Phone": 983298924, "name": "Virinchi Hospital", "longitude": "78.4289454","area":"Banjara Hills"},
    {"latitude": "17.3502533", "Phone": 8493438434, "name": "Kamineni Hospital", "longitude": "78.540404","area":"LB Nagar"},
    {"latitude": "17.3502533", "Phone": 940934384, "name": "Spring Meadows Hospital", "longitude": "78.540404","area":"Chintalakunta"},
    {"latitude": "18.092948", "Phone": 633478348, "name": "Vishwa Hospitals", "longitude": "78.8421485","area":"Siddipet"},
    {"latitude": "18.092948", "Phone": 894384834, "name": "Vijaya Multi Specility Hospital", "longitude": "78.8421485","area":"Siddipet"},
    {"latitude": "17.9984429", "Phone": 8794834832, "name": "Pramoda hospital", "longitude": "79.5230609","area":"Hanamkonda"},
    {"latitude": "17.9984429", "Phone": 6675474547, "name": "Maxcare Hospital", "longitude": "79.5230609","area":"Hanamkonda"},
    {"latitude": "17.979177", "Phone": 9578754454, "name": "Karunasree HOSPITAL", "longitude": "79.5873481","area":"Hanamkonda"},
    {"latitude": "18.440034", "Phone": 7655499944, "name": "Adharsha Hospital", "longitude": "79.1072032","area":"Karimnagar"},
    {"latitude": "18.440034", "Phone": 9854645967, "name": "Nova Hospitals", "longitude": "79.1072032","area":"Karimnagar"},
    {"latitude": "17.5126569", "Phone": 7858495844, "name": "Padmavathi Gastro Hositals", "longitude": "78.3364103","area":"Miyapur"},
    {"latitude": "16.751474", "Phone": 8948594844, "name": "Jrc Hospitals", "longitude": "77.9922376","area":"Mahaboobnagar"},
    {"latitude": "16.751474", "Phone": 9857547754, "name": "Neha Sunshine Hospitals", "longitude": "77.9922376","area":"Mahaboobnagar"},
    {"latitude": "18.8765602", "Phone": 854875454, "name": "Chest Hospitals", "longitude": "79.4344967","area":"Mancherial"},
    {"latitude": "18.8765602", "Phone": 974654885, "name": "Sri Sri Holistic Hospitals", "longitude": "79.4344967","area":"Mancherial"},
    {"latitude": "17.4387387", "Phone": 984894855, "name": "Oakridge Hospitals", "longitude": "78.3519187","area":"HitechCity"},
    {"latitude": "17.4387387", "Phone": 8184598404, "name": "Yashodha Hospitals", "longitude": "78.3519187","area":"HitechCity"},
    {"latitude": "14.374208", "Phone": 2285498544, "name": "Hyderabad Multispeciality Hospital", "longitude": "78.371639"},
    {"latitude": "17.2636222", "Phone": 9858494855, "name": "PRK Hospitals", "longitude": "78.3825179","area":"Shamshabad"},
    {"latitude": "17.2636222", "Phone": 795045454, "name": "LIMS Hospital", "longitude": "78.3825179","area":"Shamshabad"},
    {"latitude": "17.392168", "Phone": 6647647744, "name": "Srikaram Hospitals", "longitude": "78.3430476","area":"Narsingi"},
    {"latitude": "17.392168,", "Phone": 759485940, "name": "Raghavam Hospital Multi Speciality", "longitude": "78.3430476","area":"Narsingi"}
]